City_ID,City,Country,Lat,Lng,Max Temp,Humidity,Cloudiness,Wind Speed,Current Description
0,Maldonado,UY,-34.6667,-54.9167,51.19,92,0,5.41,clear sky
1,Punta Arenas,CL,-53.15,-70.9167,42.91,81,75,17.27,broken clouds
2,Litovko,RU,49.2361,135.1742,43.95,39,21,16.46,few clouds
3,Quepos,CR,9.4236,-84.1652,76.46,89,100,0.92,overcast clouds
4,Jamestown,US,42.097,-79.2353,49.64,67,0,10.36,clear sky
5,Rikitea,PF,-23.1203,-134.9692,70.32,61,91,23.91,overcast clouds
6,Mayumba,GA,-3.432,10.6554,75.13,86,100,3.18,light rain
7,Merauke,ID,-8.4667,140.3333,83.34,79,100,14.67,overcast clouds
8,Richards Bay,ZA,-28.783,32.0377,69.71,69,75,9.75,broken clouds
9,Bredasdorp,ZA,-34.5322,20.0403,49.51,78,53,4.79,broken clouds
10,Tessalit,ML,20.1986,1.0114,85.75,20,7,9.51,clear sky
11,Karratha,AU,-20.7377,116.8463,80.35,36,0,14.99,clear sky
12,Malakal,SS,9.5334,31.6605,72.91,92,87,0.13,overcast clouds
13,Lebu,CL,-37.6167,-73.65,47.79,93,14,3.06,few clouds
14,Mataura,NZ,-46.1927,168.8643,40.48,87,98,11.63,overcast clouds
15,Talara,PE,-4.5772,-81.2719,63.3,81,75,16.71,broken clouds
16,Mar Del Plata,AR,-38.0023,-57.5575,55.09,93,0,0.0,clear sky
17,Qaanaaq,GL,77.484,-69.3632,16.63,82,100,5.86,overcast clouds
18,Butaritari,KI,3.0707,172.7902,82.26,72,66,17.92,broken clouds
19,Okha,RU,53.5739,142.9478,37.53,57,97,23.96,light rain
20,Mahebourg,MU,-20.4081,57.7,75.25,68,40,11.5,scattered clouds
21,Jumla,NP,29.2747,82.1838,69.78,53,57,4.47,light rain
22,Cabo San Lucas,MX,22.8909,-109.9124,79.61,77,2,5.08,clear sky
23,Cherskiy,RU,68.75,161.3,28.15,60,11,9.86,few clouds
24,Almaznyy,RU,48.0448,40.045,49.3,66,62,4.59,broken clouds
25,Kruisfontein,ZA,-34.0033,24.7314,53.89,80,9,5.03,clear sky
26,Qostanay,KZ,53.1667,63.5833,43.09,39,0,4.47,clear sky
27,Barrow,US,71.2906,-156.7887,32.02,86,100,6.91,overcast clouds
28,Kaitangata,NZ,-46.2817,169.8464,34.74,82,96,18.92,light snow
29,Klaksvik,FO,62.2266,-6.589,49.12,88,31,33.42,light rain
30,Bay Roberts,CA,47.5999,-53.2648,49.33,86,0,10.71,clear sky
31,Quime,BO,-16.9833,-67.2167,52.77,77,90,1.5,overcast clouds
32,Meulaboh,ID,4.1363,96.1285,74.88,94,100,4.74,overcast clouds
33,Albany,US,42.6001,-73.9662,52.39,82,100,4.92,overcast clouds
34,Port Alfred,ZA,-33.5906,26.891,62.11,79,0,6.8,clear sky
35,Mackay,AU,-21.15,149.2,71.69,61,98,12.75,overcast clouds
36,Esperance,AU,-33.8667,121.9,63.05,76,74,20.58,broken clouds
37,Kapaa,US,22.0752,-159.319,82.38,76,40,13.8,scattered clouds
38,Faanui,PF,-16.4833,-151.75,78.58,70,11,24.27,few clouds
39,Road Town,VG,18.4167,-64.6167,84.29,77,21,20.13,few clouds
40,Nyurba,RU,63.2842,118.3319,30.61,92,100,9.84,light snow
41,Kavieng,PG,-2.5744,150.7967,84.81,65,61,16.02,broken clouds
42,Pangai,TO,-19.8,-174.35,80.71,78,75,6.91,broken clouds
43,Halifax,CA,44.6453,-63.5724,56.21,92,86,3.44,overcast clouds
44,Kurilsk,RU,45.2333,147.8833,51.91,59,82,16.33,broken clouds
45,Ushuaia,AR,-54.8,-68.3,42.46,81,0,6.91,clear sky
46,Georgetown,MY,5.4112,100.3354,84.88,81,20,9.22,few clouds
47,Mount Gambier,AU,-37.8333,140.7667,53.58,97,100,11.81,moderate rain
48,Poya,NC,-21.35,165.15,75.07,55,1,11.27,clear sky
49,Ilulissat,GL,69.2167,-51.1,30.22,55,19,2.3,few clouds
50,Kongolo,CD,-5.3833,27.0,72.86,78,77,1.74,broken clouds
51,Gigmoto,PH,13.7796,124.39,84.0,78,97,5.93,overcast clouds
52,Lagoa,PT,39.05,-27.9833,66.67,83,100,19.62,light rain
53,Lichinga,MZ,-13.3128,35.2406,60.89,63,0,13.0,clear sky
54,Taoudenni,ML,22.6783,-3.9836,90.09,14,0,10.25,clear sky
55,Kingaroy,AU,-26.5333,151.8333,67.8,52,100,10.22,overcast clouds
56,Hithadhoo,MV,-0.6,73.0833,82.58,71,89,17.74,overcast clouds
57,Hermanus,ZA,-34.4187,19.2345,44.8,76,61,5.23,broken clouds
58,Cape Town,ZA,-33.9258,18.4232,58.37,65,0,6.91,clear sky
59,Santa Comba,ES,43.0331,-8.8093,55.54,93,4,3.67,clear sky
60,Avarua,CK,-21.2078,-159.775,75.25,73,40,14.97,scattered clouds
61,Hilo,US,19.7297,-155.09,80.33,80,75,3.44,broken clouds
62,Puerto Ayora,EC,-0.7393,-90.3518,66.54,93,38,5.99,scattered clouds
63,Ribeira Grande,PT,38.5167,-28.7,66.6,82,75,20.71,light rain
64,Marigot,MF,18.0667,-63.0833,82.18,83,20,8.05,few clouds
65,Saint John,CA,45.2727,-66.0677,48.2,100,20,0.0,few clouds
66,Saint-Philippe,RE,-21.3585,55.7679,74.79,69,37,12.35,scattered clouds
67,Clyde River,CA,70.4692,-68.5914,25.03,86,100,19.57,light snow
68,Aquiraz,BR,-3.9014,-38.3911,79.18,80,34,13.04,scattered clouds
69,Saskylakh,RU,71.9167,114.0833,27.0,96,100,9.26,light snow
70,Vilhena,BR,-12.7406,-60.1458,69.46,86,21,3.87,few clouds
71,Karonga,MW,-9.9333,33.9333,76.8,44,62,5.23,broken clouds
72,Casablanca,MA,33.5928,-7.6192,68.22,81,0,5.14,clear sky
73,Saint George,US,37.1041,-113.5841,77.59,28,0,5.75,clear sky
74,Tasiilaq,GL,65.6145,-37.6368,32.16,62,2,6.76,clear sky
75,Bethel,US,41.3712,-73.414,55.76,88,100,11.5,overcast clouds
76,Bilibino,RU,68.0546,166.4372,23.47,73,76,6.38,broken clouds
77,Wanning,CN,18.8003,110.3967,84.51,74,14,12.26,few clouds
78,Kapoeta,SS,4.7717,33.5903,73.22,76,39,2.35,light rain
79,Pingliang,CN,35.5392,106.6861,47.05,91,100,2.44,overcast clouds
80,Ulaanbaatar,MN,47.9077,106.8832,37.53,30,0,2.24,clear sky
81,Guerrero Negro,MX,27.9769,-114.0611,69.67,81,4,11.83,clear sky
82,Upernavik,GL,72.7868,-56.1549,19.56,77,90,5.23,overcast clouds
83,Dikson,RU,73.5069,80.5464,31.86,78,100,15.95,overcast clouds
84,Bayonet Point,US,28.3267,-82.6834,69.75,80,92,12.64,overcast clouds
85,Busselton,AU,-33.65,115.3333,56.73,60,78,19.04,broken clouds
86,Nanortalik,GL,60.1432,-45.2371,38.12,92,100,21.79,light rain
87,Margate,GB,51.3813,1.3862,62.91,78,100,8.01,overcast clouds
88,Kasongo,CD,-4.45,26.6667,70.39,85,96,2.3,overcast clouds
89,Novyy Urengoy,RU,66.0833,76.6333,35.74,90,100,15.46,overcast clouds
90,Tecoanapa,MX,16.5167,-98.75,76.91,86,9,4.54,clear sky
91,Mokhsogollokh,RU,61.4681,128.9203,31.17,56,100,11.68,overcast clouds
92,Thompson,CA,55.7435,-97.8558,41.16,81,75,0.0,broken clouds
93,Panguna,PG,-6.3164,155.4848,77.52,73,95,3.4,light rain
94,Dakar,SN,14.6937,-17.4441,79.68,77,10,12.41,clear sky
95,Fortuna,US,40.5982,-124.1573,58.93,83,67,1.01,broken clouds
96,Nioro,GM,13.35,-15.75,76.42,95,43,5.46,scattered clouds
97,Hasaki,JP,35.7333,140.8333,66.29,88,100,26.37,overcast clouds
98,Nikolskoye,RU,59.7035,30.7861,45.81,97,71,4.09,broken clouds
99,Fort Nelson,CA,58.8053,-122.7002,40.59,81,75,5.75,broken clouds
100,New Norfolk,AU,-42.7826,147.0587,54.91,57,99,1.99,overcast clouds
101,Khatanga,RU,71.9667,102.5,29.41,97,98,6.35,overcast clouds
102,Esmeraldas,BR,-19.7625,-44.3139,67.06,93,99,3.36,overcast clouds
103,Muroto,JP,33.2833,134.15,74.55,73,96,14.5,overcast clouds
104,Gamba,GA,-2.65,10.0,74.88,85,96,4.88,overcast clouds
105,Cap Malheureux,MU,-19.9842,57.6142,75.47,64,77,8.99,broken clouds
106,Pak Phanang,TH,8.3511,100.202,88.03,68,88,7.78,overcast clouds
107,Muros,ES,42.7762,-9.0603,56.08,95,4,5.26,clear sky
108,Boa Vista,BR,2.8197,-60.6733,78.78,73,0,3.44,clear sky
109,Avera,US,33.194,-82.5271,54.91,74,0,5.82,clear sky
110,Warmbad,NA,-28.45,18.7333,58.01,33,1,3.29,clear sky
111,Mitsamiouli,KM,-11.3847,43.2844,75.49,78,75,11.5,broken clouds
112,Ringebu,NO,61.5167,10.1667,48.15,96,100,0.78,overcast clouds
113,Pevek,RU,69.7008,170.3133,27.61,70,67,6.98,broken clouds
114,Bonavista,CA,48.6499,-53.1147,49.26,77,1,18.25,clear sky
115,Montepuez,MZ,-13.1256,38.9997,72.63,66,60,4.14,broken clouds
116,Gazojak,TM,41.1875,61.4036,61.59,20,0,16.6,clear sky
117,Tijara,IN,27.9333,76.85,87.06,56,13,6.02,few clouds
118,High Prairie,CA,55.4334,-116.4858,49.64,49,100,6.17,overcast clouds
119,Magan,ES,39.9683,-3.931,68.52,50,0,5.66,clear sky
120,Bluff,NZ,-46.6,168.3333,40.8,62,96,28.01,overcast clouds
121,Hambantota,LK,6.1241,81.1185,88.14,66,40,13.8,scattered clouds
122,Hobart,AU,-42.8794,147.3294,55.26,59,75,10.36,broken clouds
123,Takoradi,GH,4.8845,-1.7554,74.52,94,68,5.21,broken clouds
124,Bambous Virieux,MU,-20.3428,57.7575,75.22,68,40,11.5,scattered clouds
125,Vaini,TO,-21.2,-175.2,73.56,94,100,8.05,heavy intensity rain
126,Louveira,BR,-23.0864,-46.9506,63.97,94,9,6.31,clear sky
127,Kisangani,CD,0.5167,25.2,70.27,99,100,1.92,light rain
128,Hima,UG,0.2958,30.1804,67.71,88,96,0.87,overcast clouds
129,Alugan,PH,12.2188,125.4808,85.23,70,100,6.93,overcast clouds
130,Lavrentiya,RU,65.5833,-171.0,34.43,77,9,5.21,clear sky
131,Tuktoyaktuk,CA,69.4541,-133.0374,30.2,100,20,11.5,few clouds
132,Port Elizabeth,ZA,-33.918,25.5701,59.31,86,75,6.91,broken clouds
133,Chokurdakh,RU,70.6333,147.9167,25.09,80,99,5.84,overcast clouds
134,Pleasant Point,NZ,-44.2667,171.1333,42.28,58,93,18.21,overcast clouds
135,Onalaska,US,43.8844,-91.2351,57.25,78,0,4.61,clear sky
136,Yulara,AU,-25.2406,130.9889,83.64,21,0,11.41,clear sky
137,Traverse City,US,44.7631,-85.6206,55.62,74,0,0.0,clear sky
138,Chimbote,PE,-9.0853,-78.5783,60.12,85,59,8.97,broken clouds
139,Viransehir,TR,37.2353,39.7631,78.96,19,69,12.19,broken clouds
140,Bathsheba,BB,13.2167,-59.5167,81.21,83,75,33.38,broken clouds
141,Waddan,LY,29.1614,16.139,65.71,78,0,3.83,clear sky
142,Oriximina,BR,-1.7656,-55.8661,75.76,81,21,3.78,few clouds
143,Tra Vinh,VN,9.9347,106.3453,86.31,70,99,13.53,overcast clouds
144,Jalu,LY,29.0331,21.5482,70.45,59,0,6.04,clear sky
145,Vardo,NO,70.3705,31.1107,42.78,87,75,8.05,broken clouds
146,Bilma,NE,18.6853,12.9164,82.9,21,11,8.01,few clouds
147,Kihurio,TZ,-4.4667,38.0667,70.83,72,70,1.23,broken clouds
148,Seymchan,RU,62.8833,152.4333,22.1,87,100,23.2,light snow
149,East London,ZA,-33.0153,27.9116,61.74,82,0,6.91,clear sky
150,Koupela,BF,12.1794,-0.3517,76.73,83,76,7.07,broken clouds
151,Katsuura,JP,35.1333,140.3,69.58,87,100,22.41,light rain
152,Karjat,IN,18.9167,73.3333,83.41,74,60,3.58,broken clouds
153,San Rafael Del Sur,NI,11.8485,-86.4384,77.97,90,99,4.38,overcast clouds
154,Lovozero,RU,68.005,35.0117,40.39,95,99,3.76,overcast clouds
155,Ostrovnoy,RU,68.0531,39.5131,46.38,91,100,12.66,overcast clouds
156,Nome,US,64.5011,-165.4064,39.27,81,0,12.66,clear sky
157,Namibe,AO,-15.1961,12.1522,64.71,88,80,2.95,broken clouds
158,Aklavik,CA,68.2191,-135.0107,25.77,94,6,6.89,clear sky
159,Padang,ID,-0.9492,100.3543,82.45,84,100,7.05,overcast clouds
160,Shar,KZ,49.5886,81.0453,45.88,33,7,9.42,clear sky
161,Atuona,PF,-9.8,-139.0333,76.86,69,19,21.88,few clouds
162,Teguise,ES,29.0605,-13.564,68.22,83,0,13.8,clear sky
163,Rocha,UY,-34.4833,-54.3333,48.24,91,0,3.91,clear sky
164,Yellowknife,CA,62.456,-114.3525,34.32,64,75,10.36,broken clouds
165,Norman Wells,CA,65.282,-126.8329,39.24,81,100,13.8,overcast clouds
166,Cayenne,GF,4.9333,-52.3333,73.44,94,0,0.0,clear sky
167,Gizo,SB,-8.103,156.8419,85.87,60,99,8.84,overcast clouds
168,Dubbo,AU,-32.25,148.6167,55.53,94,100,14.97,light rain
169,Forrest City,US,35.0081,-90.7898,58.57,37,5,6.69,clear sky
170,Salalah,OM,17.0151,54.0924,78.89,78,75,2.3,broken clouds
171,Hervey Bay,AU,-25.2986,152.8535,74.01,51,100,8.01,overcast clouds
172,Diplo,PK,24.4667,69.584,88.43,47,0,8.32,clear sky
173,Kavaratti,IN,10.5669,72.642,81.46,77,72,13.24,broken clouds
174,Berlevag,NO,70.8578,29.0864,42.75,81,100,6.91,overcast clouds
175,Iqaluit,CA,63.7506,-68.5145,33.53,100,100,3.0,overcast clouds
176,Kitzingen,DE,49.7333,10.1667,49.62,84,53,5.64,broken clouds
177,Serenje,ZM,-13.2325,30.2352,68.31,35,5,6.87,clear sky
178,Dvinskoy,RU,62.1535,45.1175,47.32,89,100,6.31,overcast clouds
179,Codrington,AU,-38.2667,141.9667,52.95,96,100,16.62,light rain
180,Ivdel,RU,60.6911,60.4206,49.6,66,80,2.98,broken clouds
181,Saint Anthony,US,45.0205,-93.218,66.09,62,40,5.75,scattered clouds
182,Clarksburg,US,39.2807,-80.3445,50.45,89,20,0.0,few clouds
183,Araouane,ML,18.9048,-3.5265,89.06,13,1,5.64,clear sky
184,Havelock,US,34.8791,-76.9013,58.95,87,7,5.1,clear sky
185,Irbit,RU,57.6705,63.071,52.18,58,99,5.82,overcast clouds
186,Menongue,AO,-14.6585,17.691,61.2,28,0,4.41,clear sky
187,Chuy,UY,-33.6971,-53.4616,52.77,93,0,4.72,clear sky
188,Cootamundra,AU,-34.65,148.0333,52.95,95,100,20.02,moderate rain
189,Sola,VU,-13.8833,167.55,81.16,77,21,17.27,few clouds
190,Pinega,RU,64.7001,43.3936,43.29,97,80,4.59,broken clouds
191,Ponta Do Sol,PT,32.6667,-17.1,72.23,69,81,4.47,broken clouds
192,Hualmay,PE,-11.0964,-77.6139,59.99,84,34,9.31,scattered clouds
193,Oliver,CA,49.1831,-119.5524,67.91,56,100,3.44,overcast clouds
194,Arman,RU,59.7,150.1667,32.02,66,100,8.1,overcast clouds
195,Swan Hill,AU,-35.3378,143.5544,55.42,95,100,21.74,overcast clouds
196,Nchelenge,ZM,-9.3451,28.734,73.69,30,73,5.53,broken clouds
197,Los Andes,CL,-32.8337,-70.5983,52.02,74,100,1.99,overcast clouds
198,Griffith,US,41.5284,-87.4237,60.73,91,0,0.0,clear sky
199,Nouadhibou,MR,20.931,-17.0347,73.76,81,77,16.8,broken clouds
200,Turbat,PK,26.0023,63.044,88.45,35,0,2.57,clear sky
201,Aguimes,ES,27.9054,-15.4461,73.65,53,100,11.5,overcast clouds
202,Moron,AR,-34.6534,-58.6198,60.96,73,56,6.15,broken clouds
203,Portgordon,GB,57.6635,-3.016,48.18,92,75,2.3,light rain
204,Blyth,GB,55.1271,-1.5086,61.59,84,0,13.8,clear sky
205,San Cristobal,VE,7.7669,-72.225,71.78,97,99,0.89,overcast clouds
206,Acapulco,MX,16.8634,-99.8901,80.42,83,0,3.44,clear sky
207,Vila Velha,BR,-20.3297,-40.2925,69.75,96,100,6.91,moderate rain
208,Krasnyy Chikoy,RU,50.3643,108.7512,41.25,37,56,6.04,broken clouds
209,Srednekolymsk,RU,67.45,153.6833,26.29,58,50,19.04,scattered clouds
210,Nagua,DO,19.3832,-69.8474,77.74,90,85,4.25,overcast clouds
211,Hamilton,US,39.1834,-84.5333,52.72,76,0,0.0,clear sky
212,Sao Felix Do Xingu,BR,-6.6447,-51.995,74.7,51,0,0.96,clear sky
213,Longyearbyen,SJ,78.2186,15.6401,39.04,70,20,16.11,few clouds
214,Saldanha,ZA,-33.0117,17.9442,42.85,70,66,6.04,broken clouds
215,Stavern,NO,59.0,10.0333,57.92,96,100,18.63,light rain
216,Tucupita,VE,9.0622,-62.051,73.58,98,85,1.92,overcast clouds
217,Ust-Charyshskaya Pristan,RU,52.3934,83.6635,42.78,46,96,9.37,overcast clouds
218,Sao Filipe,CV,14.8961,-24.4956,77.92,78,83,0.31,broken clouds
219,Cidreira,BR,-30.1811,-50.2056,58.6,87,2,6.53,clear sky
220,Sinop,TR,41.7711,34.8709,46.83,87,62,1.99,broken clouds
221,Bagan,RU,54.1001,77.6646,48.76,64,100,9.44,overcast clouds
222,Ketchikan,US,55.3422,-131.6461,55.87,88,100,3.44,overcast clouds
223,Narsaq,GL,60.9167,-46.05,37.62,99,100,7.9,light rain
224,Grindavik,IS,63.8424,-22.4338,43.27,81,75,32.21,broken clouds
225,Mountain Home,US,43.133,-115.6912,60.28,36,0,5.75,clear sky
226,Castro,BR,-24.7911,-50.0119,57.56,93,57,5.88,broken clouds
227,Pachora,IN,20.6667,75.35,84.2,56,84,8.52,broken clouds
228,Buin,CL,-33.7333,-70.75,55.74,86,79,0.94,broken clouds
229,Mindelo,CV,16.8901,-24.9804,78.35,83,75,8.05,broken clouds
230,Puerto Madryn,AR,-42.7692,-65.0385,60.62,47,68,18.12,broken clouds
231,Mouila,GA,-1.8685,11.0559,72.72,97,100,1.36,light rain
232,Alofi,NU,-19.0595,-169.9187,80.49,74,18,11.5,few clouds
233,Viedma,AR,-40.8135,-62.9967,49.8,89,38,10.02,scattered clouds
234,Half Moon Bay,US,37.4636,-122.4286,63.1,87,100,16.11,overcast clouds
235,Torbay,CA,47.6666,-52.7314,49.26,90,0,16.11,clear sky
236,Douglas,US,41.3,-96.167,67.59,71,100,0.0,overcast clouds
237,Thunder Bay,CA,48.4001,-89.3168,55.38,100,100,2.3,overcast clouds
238,Ulety,RU,51.3572,112.4849,37.9,35,57,9.01,broken clouds
239,Pandamatenga,BW,-18.5278,25.627,73.09,20,0,6.82,clear sky
240,Letnyaya Stavka,RU,45.4306,43.4472,58.19,83,100,7.07,overcast clouds
241,Mantua,IT,45.1667,10.7833,63.64,89,0,2.84,clear sky
242,Te Anau,NZ,-45.4167,167.7167,33.46,79,71,11.05,light snow
243,Channagiri,IN,14.0333,75.9333,80.56,63,58,9.84,broken clouds
244,Vila Franca Do Campo,PT,37.7167,-25.4333,71.2,89,76,5.39,broken clouds
245,Carnarvon,AU,-24.8667,113.6333,72.12,56,19,14.81,few clouds
246,Nhulunbuy,AU,-12.2333,136.7667,88.41,58,40,14.97,scattered clouds
247,Platanos,GR,37.6667,21.6167,67.08,66,9,5.88,clear sky
248,Asau,RO,46.4333,26.4,43.72,89,9,5.01,clear sky
249,Cockburn Town,TC,21.4612,-71.1419,82.29,78,99,6.71,overcast clouds
250,North Bend,US,43.4065,-124.2243,58.24,94,100,3.44,overcast clouds
251,Tamiahua,MX,21.2667,-97.45,74.55,86,82,2.57,broken clouds
252,Miandrivazo,MG,-19.5167,45.4667,81.57,50,0,0.13,clear sky
253,Erdenet,MN,49.0333,104.0833,38.35,26,2,5.79,clear sky
254,East Bethel,US,45.3194,-93.2025,66.09,71,75,0.0,broken clouds
255,Vestmannaeyjar,IS,63.4427,-20.2734,41.74,75,97,39.12,overcast clouds
256,Kamien Pomorski,PL,53.9685,14.7726,48.56,80,100,13.42,overcast clouds
257,Prieska,ZA,-29.6641,22.7474,65.71,14,31,1.43,scattered clouds
258,Aldan,RU,58.6031,125.3894,24.89,87,100,15.14,light snow
259,Tadine,NC,-21.55,167.8833,72.0,60,0,12.39,clear sky
260,Gaoua,BF,10.2992,-3.2508,71.67,89,100,4.12,overcast clouds
261,Chimore,BO,-16.9833,-65.1333,76.26,73,68,0.13,broken clouds
262,Roma,US,43.2128,-75.4557,52.66,94,75,1.99,broken clouds
263,Victoria,HK,22.2855,114.1577,91.45,71,46,8.99,scattered clouds
264,Boyolangu,ID,-8.1181,111.8935,81.41,73,91,10.67,overcast clouds
265,Sabha,LY,27.0377,14.4283,67.6,60,0,11.36,clear sky
266,Karakol,KG,42.4907,78.3936,52.7,41,10,5.1,clear sky
267,Coihaique,CL,-45.5752,-72.0662,46.35,71,75,2.3,broken clouds
268,Yinchuan,CN,38.4681,106.2731,56.37,42,99,1.7,overcast clouds
269,Antibes,FR,43.5624,7.1278,66.15,77,20,9.22,few clouds
270,Tuatapere,NZ,-46.1333,167.6833,36.01,72,100,19.04,overcast clouds
271,La Presa,US,32.7081,-116.9973,72.61,87,40,8.05,scattered clouds
272,Antofagasta,CL,-23.65,-70.4,58.28,84,36,6.93,scattered clouds
273,Guymon,US,36.6828,-101.4816,62.6,82,100,0.0,overcast clouds
274,Praia Da Vitoria,PT,38.7333,-27.0667,68.76,100,75,17.16,light intensity drizzle rain
275,Upington,ZA,-28.4478,21.2561,50.38,34,0,2.3,clear sky
276,Kawalu,ID,-7.3817,108.2082,79.2,81,98,5.75,overcast clouds
277,Lorengau,PG,-2.0226,147.2712,85.03,72,86,12.46,overcast clouds
278,Arraial Do Cabo,BR,-22.9661,-42.0278,68.13,86,100,4.9,overcast clouds
279,Mount Hagen,PG,-5.8581,144.2274,77.76,44,40,11.5,haze
280,Mount Isa,AU,-20.7333,139.5,85.77,48,40,11.5,scattered clouds
281,Hobyo,SO,5.3505,48.5268,80.08,73,70,15.37,broken clouds
282,Talnakh,RU,69.4865,88.3972,33.21,97,98,2.46,overcast clouds
283,Severo-Kurilsk,RU,50.6789,156.125,45.34,69,97,24.18,overcast clouds
284,Bengkulu,ID,-3.8004,102.2655,82.56,69,100,8.23,overcast clouds
285,Kaohsiung,TW,22.6163,120.3133,87.75,72,75,12.66,broken clouds
286,Quatre Cocos,MU,-20.2078,57.7625,76.08,70,87,11.36,overcast clouds
287,Kathu,TH,7.9178,98.3332,85.82,99,66,6.02,broken clouds
288,Kahului,US,20.8947,-156.47,78.82,81,75,12.66,broken clouds
289,Hofn,IS,64.2539,-15.2082,44.17,67,53,10.78,broken clouds
290,Oranjemund,NA,-28.55,16.4333,53.58,90,11,9.93,few clouds
291,Pisco,PE,-13.7,-76.2167,59.05,82,20,8.05,few clouds
292,Hastings,GB,50.8552,0.5729,63.28,86,93,23.31,overcast clouds
293,Samana,DO,19.2056,-69.3369,78.4,89,57,5.41,broken clouds
294,Vanimo,PG,-2.6741,141.3028,86.29,68,97,10.85,overcast clouds
295,Airai,TL,-8.9266,125.4092,71.35,73,89,1.83,overcast clouds
296,Luderitz,NA,-26.6481,15.1594,53.74,78,18,15.35,few clouds
297,Champerico,GT,14.3,-91.9167,80.44,77,100,2.66,overcast clouds
298,Harper,LR,4.375,-7.7169,76.53,90,100,5.08,overcast clouds
299,Taseyevo,RU,57.2169,94.8978,41.34,67,100,7.43,overcast clouds
300,Woodstock,CA,43.1334,-80.7497,50.94,82,5,3.36,clear sky
301,Ust-Nera,RU,64.5667,143.2,19.36,82,83,6.08,broken clouds
302,Oksfjord,NO,70.2396,22.3479,48.38,87,99,11.72,overcast clouds
303,Yarmouth,US,41.7057,-70.2286,60.94,96,100,12.66,mist
304,Baykit,RU,61.67,96.37,34.36,89,100,7.25,light snow
305,Roald,NO,62.5833,6.1333,52.32,71,0,10.36,clear sky
306,Mogadishu,SO,2.0371,45.3438,78.67,78,75,13.8,broken clouds
307,Chiredzi,ZW,-21.05,31.6667,72.21,67,2,9.64,clear sky
308,Lasa,IT,46.6166,10.7002,55.33,51,40,1.34,scattered clouds
309,Wanaka,NZ,-44.7,169.15,33.12,90,89,8.99,overcast clouds
310,Bantou,CN,26.2151,117.4893,91.33,47,70,1.81,broken clouds
311,Iguape,BR,-24.7081,-47.5553,65.52,93,100,6.33,overcast clouds
312,Provideniya,RU,64.3833,-173.3,37.36,100,75,11.18,broken clouds
313,Pangnirtung,CA,66.1451,-65.7125,32.45,69,98,4.47,overcast clouds
314,Laguna,US,38.421,-121.4238,75.78,64,0,5.75,clear sky
315,Mayenne,FR,48.3333,-0.6667,56.64,98,66,9.17,broken clouds
316,Constitucion,CL,-35.3333,-72.4167,48.33,89,17,6.31,few clouds
317,Waingapu,ID,-9.6567,120.2641,84.69,70,62,11.92,broken clouds
318,Villarrobledo,ES,39.2699,-2.6012,60.78,76,0,12.53,clear sky
319,Yuci,CN,37.6803,112.7319,49.75,62,0,4.47,light rain
320,Tiksi,RU,71.6872,128.8694,22.73,83,100,16.31,overcast clouds
321,Biak,ID,-0.9131,122.8766,83.68,69,55,3.91,broken clouds
322,Shingu,JP,33.7333,135.9833,75.56,81,92,0.76,overcast clouds
323,Fukue,JP,32.6881,128.8419,73.76,68,75,13.8,broken clouds
324,Tura,IN,25.5198,90.2201,82.42,71,93,2.51,overcast clouds
325,Olga,RU,43.7444,135.2892,49.95,27,0,10.67,clear sky
326,Muravlenko,RU,63.7898,74.523,36.79,80,64,14.27,broken clouds
327,Vieques,PR,18.425,-65.8329,82.42,78,20,3.44,few clouds
328,Presidente Epitacio,BR,-21.7633,-52.1156,72.54,66,9,5.08,clear sky
329,Belaya Gora,RU,68.5333,146.4167,24.6,72,96,5.59,overcast clouds
330,Kihei,US,20.785,-156.4656,78.82,86,75,12.66,broken clouds
331,Atocha,BO,-20.9333,-66.2333,35.67,15,0,7.65,clear sky
332,Grand-Lahou,CI,5.1367,-5.0242,75.36,92,92,6.17,overcast clouds
333,Sao Joao Da Barra,BR,-21.6403,-41.0511,68.63,94,100,4.56,light rain
334,Sinnamary,GF,5.3833,-52.95,77.47,87,8,8.41,clear sky
335,Machaneng,BW,-23.1862,27.4886,69.85,69,0,19.84,clear sky
336,Beringovskiy,RU,63.05,179.3167,40.19,96,99,20.38,light rain
337,Ayr,GB,55.4627,-4.6339,53.58,87,40,13.8,light rain
338,Juneau,US,58.3019,-134.4197,56.1,97,100,3.44,light rain
339,Smolyaninovo,RU,43.2956,132.4675,51.26,28,0,9.31,clear sky
340,Ust-Maya,RU,60.4167,134.5333,32.49,45,90,11.48,overcast clouds
341,Touros,BR,-5.1989,-35.4608,73.56,85,76,11.23,broken clouds
342,Souillac,MU,-20.5167,57.5167,73.78,68,40,11.5,scattered clouds
343,Gdov,RU,58.7406,27.8122,46.0,83,88,7.63,overcast clouds
344,Matay,EG,28.419,30.7792,71.91,67,0,11.1,clear sky
345,La Palma,US,33.8464,-118.0467,73.9,89,20,3.44,few clouds
346,Mildura,AU,-34.2,142.15,62.56,100,100,12.66,overcast clouds
347,Sidrolandia,BR,-20.9319,-54.9614,72.43,65,7,7.27,clear sky
348,Tohana,IN,29.7,75.9,86.58,55,1,5.57,clear sky
349,Katra,IN,32.9833,74.95,80.24,39,0,3.91,clear sky
350,Vao,NC,-22.6667,167.4833,69.31,61,3,10.49,clear sky
351,Dingle,PH,10.9995,122.6711,88.14,66,96,10.42,overcast clouds
352,Zhigansk,RU,66.7697,123.3711,27.84,72,100,6.33,overcast clouds
353,Nabire,ID,-3.3667,135.4833,85.51,65,100,4.68,overcast clouds
354,Lerwick,GB,60.1545,-1.1494,50.92,88,100,16.69,moderate rain
355,Canandaigua,US,42.8742,-77.288,48.33,85,93,2.98,overcast clouds
356,Hadishahr,AZ,38.8431,45.6635,66.69,20,0,1.74,clear sky
357,La Massana,AD,42.5667,1.4833,51.08,73,0,1.77,clear sky
358,Broome,US,42.2506,-75.833,50.41,91,100,3.0,moderate rain
359,Bereda,ES,43.2686,-7.5406,51.42,70,0,2.08,clear sky
360,Comodoro Rivadavia,AR,-45.8667,-67.5,53.46,47,0,21.85,clear sky
361,Tolaga Bay,NZ,-38.3667,178.3,60.08,61,95,13.13,overcast clouds
362,Ulladulla,AU,-35.35,150.4667,54.5,81,100,13.22,moderate rain
363,Tela,HN,15.7833,-87.45,73.74,90,98,4.88,overcast clouds
364,Cukai,MY,4.25,103.4167,80.55,87,100,7.47,overcast clouds
365,Honiara,SB,-9.4333,159.95,86.14,53,57,8.5,broken clouds
366,Rena,NO,61.1348,11.3641,50.68,94,100,2.24,overcast clouds
367,Kidal,ML,18.4411,1.4078,84.58,25,28,1.86,scattered clouds
368,Puerto Ayacucho,VE,5.6639,-67.6236,74.84,91,98,2.51,moderate rain
369,Egvekinot,RU,66.3167,-179.1667,24.4,84,95,4.52,overcast clouds
370,Campoverde,PE,-8.4753,-74.8058,80.29,65,78,2.68,broken clouds
371,Lesozavodsk,RU,45.4794,133.4244,47.37,28,49,10.94,scattered clouds
372,Puerto Del Rosario,ES,28.5004,-13.8627,73.15,78,56,12.66,broken clouds
373,Monrovia,LR,6.3005,-10.7969,76.77,89,99,1.7,light rain
374,Sfantu Gheorghe,RO,45.8667,25.7833,43.93,88,92,1.43,overcast clouds
375,Kushmurun,KZ,52.4503,64.6311,50.99,25,35,7.9,scattered clouds
376,Lodwar,KE,3.1191,35.5973,82.2,45,78,14.97,broken clouds
377,Aksarka,RU,66.5606,67.7975,38.82,72,5,5.5,clear sky
378,Aljezur,PT,37.3191,-8.8033,66.52,57,0,6.06,clear sky
379,Hillsboro,US,45.5229,-122.9898,60.08,85,0,0.0,clear sky
380,Khandyga,RU,62.6667,135.6,29.44,41,86,7.05,overcast clouds
381,Owerri,NG,5.4833,7.0304,72.81,98,100,3.29,overcast clouds
382,Novoilinsk,RU,51.6829,108.7143,38.97,42,72,8.84,broken clouds
383,San Carlos,VE,9.6612,-68.5827,73.15,91,44,2.93,scattered clouds
384,Ginir,ET,7.1333,40.7,60.93,77,85,6.55,overcast clouds
385,Bambanglipuro,ID,-7.95,110.2833,83.3,66,100,12.33,overcast clouds
386,Shinuhayr,AM,39.4367,46.3179,68.85,24,0,1.01,clear sky
387,Necochea,AR,-38.5473,-58.7368,45.81,92,34,12.24,scattered clouds
388,Hoquiam,US,46.9809,-123.8893,58.44,93,73,2.37,broken clouds
389,Helong,CN,42.5397,128.9972,48.7,25,0,8.99,clear sky
390,Nesna,NO,66.1967,13.0213,50.41,80,100,9.1,light rain
391,Puri,IN,19.8,85.85,81.12,75,99,12.12,overcast clouds
392,Buraydah,SA,26.326,43.975,72.05,25,0,7.76,clear sky
393,Slave Lake,CA,55.2834,-114.769,46.38,87,100,0.0,overcast clouds
394,High Level,CA,58.5169,-117.136,42.91,75,40,9.22,smoke
395,Leningradskiy,RU,69.3833,178.4167,20.03,85,16,7.43,few clouds
396,Itupiranga,BR,-5.1347,-49.3267,75.52,64,34,2.19,scattered clouds
397,Olafsvik,IS,64.8945,-23.7142,41.97,87,100,28.81,overcast clouds
398,Paamiut,GL,61.994,-49.6678,38.89,95,100,19.98,light rain
399,Moranbah,AU,-22.0016,148.0466,80.98,36,97,13.4,overcast clouds
400,Porto Novo,BJ,6.4965,2.6036,74.82,94,51,3.02,broken clouds
401,Miramar,US,25.9873,-80.2323,77.0,85,38,3.0,scattered clouds
402,Saint-Pierre,RE,-21.3393,55.4781,74.88,64,75,4.61,broken clouds
403,Havoysund,NO,70.9963,24.6622,44.83,80,33,17.98,scattered clouds
404,Puerto Escondido,MX,15.85,-97.0667,78.76,82,15,4.97,few clouds
405,Genhe,CN,50.7833,121.5167,38.48,25,67,7.43,broken clouds
406,Kodiak,US,57.79,-152.4072,51.31,82,100,16.11,mist
407,Peto,MX,20.1333,-88.9167,69.1,75,27,2.55,scattered clouds
408,Coahuayana,MX,18.7333,-103.6833,75.74,91,48,2.75,scattered clouds
409,Sorong,ID,-0.8833,131.25,82.36,76,80,2.64,broken clouds
410,Kirakira,SB,-10.4544,161.9205,81.68,78,32,7.23,scattered clouds
411,Nelson Bay,AU,-32.7167,152.15,63.0,86,100,18.99,light rain
412,Awjilah,LY,29.1081,21.2869,69.55,60,0,6.29,clear sky
413,Rabat,MA,33.9911,-6.8401,68.04,100,40,0.0,scattered clouds
414,Husavik,IS,66.0449,-17.3389,39.56,99,100,19.04,overcast clouds
415,Chara,RU,56.9064,118.2631,27.68,55,27,5.55,scattered clouds
416,Weligama,LK,5.9667,80.4167,82.85,73,97,15.1,overcast clouds
417,Teknaf,BD,20.8624,92.3058,86.94,65,40,3.2,scattered clouds
418,Dunedin,NZ,-45.8742,170.5036,35.6,84,92,25.84,overcast clouds
419,Rawson,AR,-43.3002,-65.1023,58.64,46,72,16.37,broken clouds
420,Kang,BW,-23.6752,22.7876,74.68,18,0,11.3,clear sky
421,Kutum,SD,14.2,24.6667,73.42,59,14,4.41,few clouds
422,Pauini,BR,-7.7136,-66.9764,73.62,86,82,3.06,broken clouds
423,Polyarnyy,RU,69.1989,33.4478,40.48,90,100,11.36,overcast clouds
424,Sitka,US,57.0531,-135.33,60.69,59,100,10.36,overcast clouds
425,Quepem,IN,15.2167,74.0667,83.97,74,86,6.78,light rain
426,West Bay,KY,19.3667,-81.4167,81.07,74,73,1.01,broken clouds
427,Lompoc,US,34.6391,-120.4579,60.53,93,100,3.44,fog
428,Pemba,MZ,-12.974,40.5178,74.1,100,20,5.01,few clouds
429,Samarai,PG,-10.6167,150.6667,79.18,84,100,8.68,overcast clouds
430,Chingirlau,KZ,51.095,54.0814,50.79,25,91,16.91,overcast clouds
431,Grand Gaube,MU,-20.0064,57.6608,75.38,65,80,13.0,broken clouds
432,Maragogi,BR,-9.0122,-35.2225,74.03,82,38,5.79,scattered clouds
433,Fuyu,CN,45.1833,124.8167,48.65,25,36,14.5,scattered clouds
434,Yola,NG,9.2,12.4833,76.82,88,40,0.0,scattered clouds
435,Thinadhoo,MV,0.5333,72.9333,81.27,77,100,17.49,overcast clouds
436,Hudson Bay,CA,52.85,-102.3842,52.72,69,43,2.01,scattered clouds
437,Bara,NG,10.3744,10.7288,72.1,94,81,5.99,broken clouds
438,Bassar,TG,9.25,0.7833,70.45,95,100,2.62,overcast clouds
439,Marmora,IT,44.4583,7.094,50.47,60,0,4.0,clear sky
440,Penzance,GB,50.1186,-5.5371,61.48,91,100,30.62,overcast clouds
441,Qasigiannguit,GL,68.8193,-51.1922,15.1,79,13,4.45,few clouds
442,Juegang,CN,32.3174,121.1855,67.91,60,100,13.04,overcast clouds
443,Linjiang,CN,41.8069,126.9078,50.86,25,0,6.8,clear sky
444,Teluk Nibung,ID,3.001,99.8164,77.43,89,100,4.05,overcast clouds
445,Taltal,CL,-25.4,-70.4833,53.87,82,21,2.33,few clouds
446,Grand Forks,US,47.9417,-97.4337,61.74,69,43,3.98,scattered clouds
447,Sechura,PE,-5.5569,-80.8222,61.14,84,80,11.41,broken clouds
448,Pennagaram,IN,12.1333,77.9,78.19,51,76,6.11,broken clouds
449,Emba,KZ,48.8264,58.1442,53.26,17,46,13.42,scattered clouds
450,Tocopilla,CL,-22.092,-70.1979,57.67,73,14,5.86,few clouds
451,Najran,SA,17.4924,44.1277,75.85,17,36,5.95,scattered clouds
452,Bonthe,SL,7.5264,-12.505,76.26,90,100,2.01,overcast clouds
453,Kamen-Na-Obi,RU,53.7884,81.3423,40.87,72,100,9.33,overcast clouds
454,Nantucket,US,41.2835,-70.0995,62.71,98,100,14.97,mist
455,Coquimbo,CL,-29.9533,-71.3436,55.13,82,75,1.14,broken clouds
456,Camacha,PT,33.0833,-16.3333,67.42,78,20,11.5,few clouds
457,Liwale,TZ,-9.7667,37.9333,69.03,80,60,5.06,broken clouds
458,Srandakan,ID,-7.9386,110.2506,83.23,67,100,11.92,overcast clouds
459,Korla,CN,41.7597,86.1469,63.28,18,5,14.0,clear sky
460,Portland,US,45.5234,-122.6762,60.75,88,0,0.0,clear sky
461,Luau,AO,-10.7073,22.2247,69.85,57,25,1.88,scattered clouds
462,Taos,US,36.4072,-105.5731,52.27,82,88,1.01,overcast clouds
463,Zimovniki,RU,47.1483,42.4633,57.43,71,100,5.5,overcast clouds
464,Paysandu,UY,-32.3214,-58.0756,49.66,92,6,8.25,clear sky
465,Moindou,NC,-21.6924,165.677,73.02,59,2,12.12,clear sky
466,Vorotynets,RU,56.0603,45.8633,47.98,86,100,14.03,overcast clouds
467,Kouroussa,GN,10.65,-9.8833,71.73,96,62,2.89,broken clouds
468,Umarkot,PK,25.3616,69.7362,90.72,41,0,7.54,clear sky
469,Aswan,EG,24.0934,32.907,79.9,29,0,6.91,clear sky
470,Cabedelo,BR,-6.9811,-34.8339,74.07,79,72,9.01,broken clouds
471,Anadyr,RU,64.75,177.4833,36.1,93,75,17.9,light rain
472,Zhanaozen,KZ,43.3,52.8,62.6,16,3,21.47,clear sky
473,Linxia,CN,35.6003,103.2064,47.44,82,100,7.09,overcast clouds
474,Panzhihua,CN,26.5851,101.7128,83.53,56,40,4.16,scattered clouds
475,Petropavlovsk-Kamchatskiy,RU,53.0452,158.6483,54.19,50,20,13.42,few clouds
476,Kuah,MY,6.3265,99.8432,85.98,74,40,3.44,scattered clouds
477,Chapada Dos Guimaraes,BR,-15.4606,-55.7497,73.06,61,42,5.17,scattered clouds
478,Antalaha,MG,-14.9003,50.2788,72.37,69,100,4.97,overcast clouds
479,Rincon,US,32.296,-81.2354,62.85,96,8,4.99,clear sky
480,Uttaradit,TH,17.6667,100.5,84.36,66,78,1.54,broken clouds
481,Mitu,CO,1.1983,-70.1733,71.47,98,85,2.19,overcast clouds
482,Isangel,VU,-19.55,169.2667,75.58,64,24,12.75,few clouds
483,Prince Rupert,CA,54.3161,-130.3201,56.89,91,100,2.3,light rain
484,Strezhevoy,RU,60.7333,77.5889,42.26,75,79,10.16,broken clouds
485,Staropesterevo,RU,54.5001,86.4094,37.2,75,100,11.52,light rain
486,Kichera,RU,55.9375,110.0997,32.07,47,28,3.18,scattered clouds
487,Rio Grande,BR,-32.035,-52.0986,57.94,91,0,7.99,clear sky
488,Moba,CN,33.2288,105.0179,49.51,86,100,4.23,overcast clouds
489,Aykhal,RU,66.0,111.5,28.35,91,95,17.0,overcast clouds
490,Seoul,KR,37.5683,126.9778,67.57,50,75,5.75,broken clouds
491,Severo-Yeniseyskiy,RU,60.3725,93.0408,32.14,91,100,8.99,light snow
492,Vikevag,NO,59.0976,5.6969,53.67,94,100,1.01,overcast clouds
493,Algete,ES,40.5971,-3.4974,64.8,51,0,5.01,clear sky
494,Saint-Ambroise,CA,48.5501,-71.3324,53.42,87,84,1.03,broken clouds
495,Geraldton,AU,-28.7667,114.6,70.21,46,75,13.8,broken clouds
496,Harlingen,US,26.1906,-97.6961,77.09,87,16,6.35,few clouds
497,Caldwell,US,43.6629,-116.6874,67.17,62,0,0.0,clear sky
498,Bayanday,RU,53.0661,105.5139,36.63,46,22,4.74,few clouds
499,Englewood,US,39.6478,-104.9878,58.05,77,49,1.99,scattered clouds
500,Kalmunai,LK,7.4167,81.8167,87.71,54,100,2.44,overcast clouds
501,Snyder,US,32.7179,-100.9176,68.34,30,0,6.91,clear sky
502,Port Hueneme,US,34.1478,-119.1951,71.26,86,1,2.1,clear sky
503,College,US,64.8569,-147.8028,45.99,71,93,5.23,overcast clouds
504,Kemijarvi,FI,66.7131,27.4306,37.98,95,100,3.96,overcast clouds
505,Canmore,CA,51.0834,-115.3521,51.82,66,80,1.14,broken clouds
506,Umm Lajj,SA,25.0213,37.2685,84.45,58,3,7.76,clear sky
507,Pitimbu,BR,-7.4706,-34.8086,73.99,79,92,9.55,overcast clouds
508,Lyudinovo,RU,53.8664,34.4478,42.49,96,97,6.35,overcast clouds
509,Pitea,SE,65.3172,21.4794,46.49,93,100,13.94,light rain
510,Dossor,KZ,47.5272,52.9811,57.96,28,76,20.11,broken clouds
511,Marsa Matruh,EG,31.3525,27.2453,73.6,73,20,11.5,few clouds
512,Sakharovo,RU,56.8995,36.0502,42.17,93,100,2.86,overcast clouds
513,Mehamn,NO,71.0357,27.8492,42.71,81,20,6.91,few clouds
514,Iranshahr,IR,27.2025,60.6848,89.94,12,0,0.0,clear sky
515,Port Blair,IN,11.6667,92.75,86.04,79,75,6.91,broken clouds
516,Chestermere,CA,51.0334,-113.8187,60.33,57,20,5.75,few clouds
517,Krasnoselkup,RU,65.7,82.4667,35.6,97,100,10.13,overcast clouds
518,Nemuro,JP,43.3236,145.575,54.05,57,99,19.48,overcast clouds
519,Rimini,IT,44.0241,12.5186,64.62,95,0,3.44,clear sky
520,Ust-Kut,RU,56.7938,105.7672,36.59,49,58,4.21,broken clouds
521,Gatak,ID,-7.5908,110.7044,86.49,57,100,12.5,overcast clouds
522,Gewane,ET,10.1664,40.6453,80.53,54,99,2.04,overcast clouds
523,Isiro,CD,2.7739,27.616,65.66,98,100,3.31,overcast clouds
524,Vaitape,PF,-16.5167,-151.75,78.53,70,13,24.23,few clouds
525,Canavieiras,BR,-15.675,-38.9472,71.2,85,36,6.13,scattered clouds
526,Qaqortoq,GL,60.7167,-46.0333,35.46,99,100,9.4,light rain
527,Sanica,BA,44.6142,16.6411,47.89,80,8,3.42,clear sky
528,Rodrigues Alves,BR,-7.738,-72.6509,75.15,70,4,2.21,clear sky
529,Brae,GB,60.3964,-1.353,51.48,78,100,13.96,overcast clouds
530,Wattegama,LK,6.7989,81.4808,90.14,43,100,2.66,light rain
531,Tilichiki,RU,60.4667,166.1,44.1,96,100,17.67,moderate rain
532,Arlit,NE,18.7369,7.3853,87.01,17,0,9.64,clear sky
533,Valparaiso,CL,-33.0393,-71.6273,57.99,92,40,4.61,scattered clouds
534,Haines Junction,CA,60.7522,-137.5108,40.95,81,100,1.14,overcast clouds
535,Santa Cruz,BO,-17.8,-63.1667,74.66,83,33,8.05,scattered clouds
536,Troy,US,42.6056,-83.1499,53.53,73,0,3.44,clear sky
537,Comarapa,BO,-17.9,-64.4833,56.71,95,76,2.73,broken clouds
538,Hwange,ZW,-18.3693,26.5019,75.25,20,0,3.83,clear sky
539,Katangli,RU,51.7102,143.2326,38.77,51,23,20.18,few clouds
540,Mandapam,IN,9.2833,79.1167,83.37,72,81,10.87,moderate rain
541,Mogok,MM,22.9167,96.5,80.15,60,41,1.5,scattered clouds
542,Ganzhou,CN,28.8184,115.4327,64.74,68,100,5.99,overcast clouds
543,Maniitsoq,GL,65.4167,-52.9,35.19,50,70,5.3,broken clouds
544,Yamada,JP,39.4667,141.95,61.05,56,99,5.12,light rain
545,Los Llanos De Aridane,ES,28.6585,-17.9182,73.15,41,0,9.22,clear sky
546,Dosso,NE,13.049,3.1937,78.48,70,99,7.72,overcast clouds
547,Winston-Salem,US,36.0999,-80.2442,54.88,79,44,6.35,scattered clouds
548,Chengde,CN,40.9725,117.9361,54.77,16,9,7.14,clear sky
549,Glendive,US,47.1053,-104.7125,62.19,83,11,4.83,few clouds
550,Wakkanai,JP,45.4094,141.6739,46.38,76,75,20.71,broken clouds
551,Alihe,CN,50.5667,123.7167,42.87,26,49,9.26,scattered clouds
552,Bubaque,GW,11.2833,-15.8333,81.36,78,58,9.31,broken clouds
553,Mgandu,TZ,-5.95,34.1333,63.97,58,85,11.03,overcast clouds
554,Yuzhno-Kurilsk,RU,44.0306,145.8556,52.88,64,73,17.74,broken clouds
555,Shimoda,JP,34.6667,138.95,73.76,90,94,15.59,overcast clouds
556,Bismil,TR,37.8486,40.6658,68.11,19,55,6.51,broken clouds
557,Marsh Harbour,BS,26.5412,-77.0636,78.98,73,19,11.65,few clouds
558,Belogorsk,RU,50.9158,128.4611,42.4,34,38,15.08,scattered clouds
559,Povenets,RU,62.8487,34.8262,46.78,95,98,7.23,overcast clouds
560,Batagay,RU,67.6333,134.6333,23.07,74,97,0.94,overcast clouds
561,Bud,US,39.447,-86.1758,48.4,86,0,2.1,clear sky
562,Saraland,US,30.8207,-88.0706,64.06,80,84,1.61,broken clouds
563,Punta Gorda,US,26.9298,-82.0454,74.05,77,16,13.0,few clouds
564,Saquena,PE,-4.6667,-73.5167,78.04,64,80,2.62,broken clouds
565,Dalvik,IS,65.9702,-18.5286,40.93,99,100,8.95,overcast clouds
566,Kamenka,RU,51.3223,42.7678,50.68,72,28,10.92,scattered clouds
567,Gladstone,AU,-23.85,151.25,73.33,56,100,14.97,overcast clouds
568,Kristiinankaupunki,FI,62.2743,21.376,48.65,97,100,16.49,light rain
569,Vuktyl,RU,63.8567,57.3094,46.74,82,100,9.1,overcast clouds
570,Casper,US,42.8666,-106.3131,49.8,77,16,3.91,few clouds
571,Umm Kaddadah,SD,13.6017,26.6876,81.12,56,100,6.71,overcast clouds
572,Aransas Pass,US,27.9095,-97.15,75.97,89,0,0.0,clear sky
573,Tabou,CI,4.423,-7.3528,76.17,91,100,4.72,light rain
574,Lixourion,GR,38.2019,20.4314,67.21,65,35,4.94,scattered clouds
575,Aykino,RU,62.2248,49.9922,45.86,87,100,6.44,overcast clouds
576,Alyangula,AU,-13.8483,136.4192,85.23,66,22,10.76,few clouds
577,Beloha,MG,-25.1667,45.05,76.33,59,6,3.42,clear sky
578,Buarcos,PT,40.166,-8.8768,52.14,85,0,6.55,clear sky
579,Beni,CD,0.5,29.4667,63.21,98,97,0.76,overcast clouds
580,Banda Aceh,ID,5.5577,95.3222,80.73,80,99,9.28,overcast clouds
581,At-Bashi,KG,41.1702,75.8106,53.1,25,79,3.15,broken clouds
582,Mishelevka,RU,52.8575,103.1719,43.56,44,17,2.91,few clouds
583,Angoram,PG,-4.0625,144.0661,87.21,64,100,5.41,overcast clouds
584,Hargeysa,SO,9.56,44.065,75.27,45,81,8.32,broken clouds
585,Verkhnetulomskiy,RU,68.6073,31.7962,37.53,94,100,4.9,overcast clouds
586,Nehe,CN,48.4833,124.8333,45.39,22,98,10.96,overcast clouds
587,Terrace,CA,54.5163,-128.6035,53.51,82,100,9.22,light rain
588,Swift Current,CA,50.2834,-107.8014,65.21,45,0,5.75,clear sky
589,Amapa,BR,1.0,-52.0,72.9,94,79,3.18,broken clouds
590,Farmington,US,36.7281,-108.2187,63.01,46,100,5.35,overcast clouds
591,Sorland,NO,67.667,12.6934,49.86,75,100,19.06,overcast clouds
592,Jacareacanga,BR,-6.2222,-57.7528,72.43,89,40,0.36,scattered clouds
593,Sao Gabriel Da Cachoeira,BR,-0.1303,-67.0892,75.27,81,69,1.77,broken clouds
594,Riyadh,SA,24.6877,46.7219,75.34,30,0,4.63,clear sky
595,Russkaya Polyana,UA,49.417,31.9201,46.18,93,23,12.55,few clouds
596,Port Macquarie,AU,-31.4333,152.9167,63.9,59,100,9.55,overcast clouds
597,Aranda De Duero,ES,41.6704,-3.6892,56.5,44,0,4.34,clear sky
598,Kachiry,KZ,53.0675,76.1036,53.35,38,91,10.74,overcast clouds
599,Turangi,NZ,-39.0,175.9333,39.97,92,100,8.79,overcast clouds
600,Kalavad,IN,22.2167,70.3833,82.96,53,14,9.53,few clouds
601,Ancud,CL,-41.8697,-73.8203,46.26,92,17,5.59,few clouds
602,Ouesso,CG,1.6136,16.0517,68.95,97,100,1.66,overcast clouds
603,Micheweni,TZ,-4.9667,39.8333,77.31,78,28,8.79,scattered clouds
604,Garmsar,IR,35.2182,52.3409,82.47,15,0,0.85,clear sky
605,Palana,RU,59.1167,159.9667,37.92,79,100,21.56,overcast clouds
606,Upata,VE,8.0086,-62.3989,77.2,94,80,2.35,broken clouds
607,Daoukro,CI,7.0591,-3.9631,70.72,98,90,3.67,overcast clouds
608,Chumikan,RU,54.7183,135.315,40.26,31,100,16.49,overcast clouds
609,Rjukan,NO,59.8789,8.5941,47.05,98,85,2.68,overcast clouds
610,Kalabo,ZM,-14.97,22.6814,67.64,25,1,5.23,clear sky
611,Marquette,US,46.5333,-87.6335,59.77,80,100,6.58,overcast clouds
612,Esperantina,BR,-3.9017,-42.2336,69.55,97,55,3.38,broken clouds
613,Khromtau,KZ,50.2503,58.4347,45.68,25,61,11.79,broken clouds
614,Balikpapan,ID,-1.2675,116.8289,79.79,89,20,4.61,light rain
615,Jimeta,NG,9.2833,12.4667,77.23,88,40,0.0,scattered clouds
616,Galesong,ID,-5.3166,119.3661,87.82,71,100,4.83,overcast clouds
617,Antri,IN,26.0567,78.2144,81.75,72,90,8.37,overcast clouds
618,Zhuhai,CN,22.2769,113.5678,91.18,70,20,11.5,few clouds
619,Huarmey,PE,-10.0681,-78.1522,60.53,86,44,8.34,scattered clouds
620,Bairiki,KI,1.3292,172.9752,81.93,72,27,16.26,scattered clouds
621,Hami,CN,42.8,93.45,59.94,40,96,5.14,overcast clouds
622,Kiunga,PG,-6.1219,141.2906,90.54,54,77,5.17,broken clouds
623,Zhezkazgan,KZ,47.8043,67.7144,46.38,27,0,11.18,clear sky
624,Dedza,MW,-14.3779,34.3332,66.63,30,21,6.67,few clouds
625,Uthal,PK,25.8072,66.6219,84.7,64,0,2.15,clear sky
626,Dumas,US,35.8656,-101.9732,62.74,67,75,6.91,broken clouds
627,Ternate,ID,0.8,127.4,85.12,70,61,8.34,broken clouds
628,San Quintin,MX,30.4833,-115.95,68.83,85,16,5.61,few clouds
629,Ewa Beach,US,21.3156,-158.0072,79.99,79,49,11.01,scattered clouds
630,Boa Esperanca,BR,-21.09,-45.5658,63.18,94,66,1.63,broken clouds
631,Urumqi,CN,43.801,87.6005,52.75,28,0,4.47,clear sky
632,Namatanai,PG,-3.6667,152.4333,85.19,62,75,12.5,broken clouds
633,Poplar Bluff,US,36.757,-90.3929,54.34,79,4,1.01,clear sky
634,Faya,SA,18.3851,42.4509,67.91,20,10,11.5,clear sky
635,Seagoville,US,32.6396,-96.5383,72.37,56,0,0.0,clear sky
636,Huoqiu,CN,32.3394,116.2694,50.86,86,100,10.56,moderate rain
637,Flinders,AU,-34.5833,150.8552,59.18,84,100,4.0,light rain
638,Lakes Entrance,AU,-37.8811,147.981,59.16,61,100,19.39,moderate rain
639,Eyl,SO,7.9803,49.8164,81.28,67,66,15.23,broken clouds
640,Plettenberg Bay,ZA,-34.0527,23.3716,55.45,75,5,3.87,clear sky
641,Bardiyah,LY,31.7561,25.0865,73.15,64,6,13.13,clear sky
642,Ucluelet,CA,48.9329,-125.5528,59.09,88,100,6.17,overcast clouds
643,Ayan,RU,56.45,138.1667,35.15,46,98,22.66,overcast clouds
644,Molchanovo,RU,57.5817,83.7692,39.36,91,100,8.5,overcast clouds
645,Tukrah,LY,32.5341,20.5791,71.55,72,4,8.48,clear sky
646,Mbekenyera,TZ,-10.0,38.9833,74.16,64,55,3.42,broken clouds
647,Gogrial,SS,8.5332,28.1004,72.79,84,96,1.41,overcast clouds
648,Mangan,IN,27.5167,88.5333,72.55,94,100,0.65,overcast clouds
649,Bajil,YE,15.0584,43.2851,90.45,46,56,5.44,broken clouds
650,Tera,NE,14.0078,0.7531,83.25,64,11,7.4,few clouds
651,Okhotsk,RU,59.3833,143.3,34.68,54,100,17.11,overcast clouds
652,Ruzhyn,UA,49.7228,29.2046,44.6,93,14,11.1,few clouds
653,Kalangala,UG,-0.3089,32.225,63.75,84,85,15.48,overcast clouds
654,Kumluca,TR,36.3703,30.2869,74.44,50,0,4.97,clear sky
655,Teguldet,RU,57.3064,88.1667,35.02,98,100,9.24,snow
656,Ormond Beach,US,29.2858,-81.0559,72.03,86,61,4.0,broken clouds
657,Banepa,NP,27.6298,85.5214,66.52,88,75,9.22,broken clouds
658,Susuman,RU,62.7833,148.1667,18.81,78,100,17.65,light snow
659,Manavalakurichi,IN,8.1333,77.3,84.45,68,99,16.98,overcast clouds
660,Fairbanks,US,64.8378,-147.7164,45.99,71,93,5.28,overcast clouds
661,Port Augusta,AU,-32.5,137.7667,80.62,30,11,11.1,few clouds
662,Edd,ER,13.9297,41.6925,90.41,59,93,9.8,overcast clouds
663,Ponta Delgada,PT,37.7333,-25.6667,70.52,88,20,2.3,few clouds
664,Richmond Hill,CA,43.8711,-79.4372,49.64,89,4,4.72,clear sky
665,Shakiso,ET,5.75,38.9167,59.56,97,100,1.72,light rain
666,Nikel,RU,69.4128,30.222,39.38,95,100,7.63,overcast clouds
667,Alta Floresta,BR,-9.8756,-56.0861,71.67,87,58,2.46,broken clouds
668,Chkalovskoye,RU,44.8392,133.0436,46.65,30,3,9.78,clear sky
669,Pachino,IT,36.7186,15.0907,69.19,62,5,5.79,clear sky
670,Dombarovskiy,RU,50.7587,59.5386,47.43,26,78,11.97,broken clouds
671,Lincoln,US,40.8,-96.667,62.56,81,89,1.99,overcast clouds
672,Saedinenie,BG,42.2667,24.55,47.95,93,0,2.3,clear sky
673,Piterka,RU,50.6803,47.4454,56.59,55,100,9.48,overcast clouds
674,Berbera,SO,10.4396,45.0143,88.14,62,52,2.35,broken clouds
675,Qianjiang,CN,30.4151,112.8859,52.61,78,100,10.56,overcast clouds
676,Shieli,KZ,44.1667,66.75,59.41,18,0,20.58,clear sky
677,Camopi,GF,3.1655,-52.3158,71.06,100,46,2.01,scattered clouds
678,Ibra,OM,22.6906,58.5334,86.09,32,73,0.65,broken clouds
679,Illela,NG,13.7292,5.2975,81.86,61,13,6.64,few clouds
680,Omsukchan,RU,62.5333,155.8,24.93,96,100,6.26,snow
681,Along,IN,28.1667,94.7667,73.98,98,99,0.6,overcast clouds
682,Napier,NZ,-39.4833,176.9167,50.05,66,90,21.03,overcast clouds
683,San Rafael,AR,-34.6177,-68.3301,55.31,64,100,18.32,overcast clouds
684,Senanga,ZM,-16.1167,23.2667,68.9,27,0,4.14,clear sky
685,Patiya,BD,22.2931,91.9762,89.64,60,31,3.36,scattered clouds
686,Akniste,LV,56.1615,25.7478,44.37,96,100,5.77,overcast clouds
687,Graaff-Reinet,ZA,-32.2522,24.5308,56.17,69,0,0.45,clear sky
688,Naze,JP,28.3667,129.4833,78.31,78,27,8.32,scattered clouds
689,Natchez,US,31.5604,-91.4032,60.26,94,0,0.0,clear sky
690,Caravelas,BR,-17.7125,-39.2481,73.96,82,60,10.04,broken clouds
691,Salta,AR,-24.7859,-65.4117,61.57,68,0,1.01,clear sky
692,Komsomolskiy,UZ,40.4272,71.7189,66.92,26,1,2.3,clear sky
693,Westport,US,41.1415,-73.3579,57.88,88,100,20.71,light rain
694,Jos,NG,9.9167,8.9,63.54,87,62,1.59,broken clouds
695,Mangrol,IN,21.1167,70.1167,84.15,65,3,9.57,clear sky
696,Neiafu,TO,-18.65,-173.9833,79.48,89,75,9.22,broken clouds
697,Saint-Francois,FR,46.4154,3.9054,45.84,100,100,1.14,fog
698,Porto Santo,PT,33.072,-16.3415,70.18,78,20,11.5,few clouds
699,Pangody,RU,65.85,74.4859,36.43,83,100,14.76,overcast clouds
700,Charleston,US,32.7766,-79.9309,60.03,90,0,0.0,clear sky
701,Ipameri,BR,-17.7219,-48.1597,69.21,85,91,3.96,overcast clouds
702,Kuito,AO,-12.3833,16.9333,60.19,71,13,3.69,few clouds
703,Buta,CD,2.7858,24.73,69.33,99,100,1.19,light rain
704,Ahipara,NZ,-35.1667,173.1667,57.4,84,99,16.2,overcast clouds
705,Otane,NZ,-39.8833,176.6333,47.39,74,83,13.89,broken clouds
706,Kimberley,ZA,-28.7323,24.7623,55.09,44,0,3.44,clear sky
707,Magalia,US,39.8121,-121.5783,69.12,60,77,1.01,broken clouds
708,Isabela,PH,6.7085,121.9711,87.03,63,58,8.3,broken clouds
709,Mchinji,MW,-13.7984,32.8802,70.16,31,14,9.71,few clouds
710,Amahai,ID,-3.3333,128.9167,84.51,70,96,5.46,overcast clouds
711,Dormidontovka,RU,47.7702,134.9076,43.65,38,48,15.86,scattered clouds
712,Laguna De Perlas,NI,12.3429,-83.6712,77.16,90,100,9.22,overcast clouds
713,Mancio Lima,BR,-7.6142,-72.8958,75.15,69,2,2.33,clear sky
714,Baylo,PH,7.8539,126.0581,84.83,73,99,3.0,light rain
715,Vallenar,CL,-28.5708,-70.7581,51.24,80,1,2.66,clear sky
716,Shuyskoye,RU,59.3736,41.0305,47.95,95,100,7.72,overcast clouds
